{
"type": "FeatureCollection",
"crs": { "type": "name", "properties": { "name": "urn:ogc:def:crs:OGC:1.3:CRS84" } },
                                                                                
"features": [
{ "type": "Feature", "properties": { "Namn": "Kälsberget, Vebomark", "Bäddar": 0, "Avgift": "Nej", "lat": 64.417300, "lng": 20.965000, "Notering": null, "URL": "http:\/\/www.vebomark.net\/Utflyktsm-l.html" }, "geometry": { "type": "Point", "coordinates": [ 20.965, 64.4173 ] } },
{ "type": "Feature", "properties": { "Namn": "Kvarnbäckskojan", "Bäddar": 4, "Avgift": "Nej", "lat": 64.269241, "lng": 20.187097, "Notering": null, "URL": "http:\/\/www.lansstyrelsen.se\/vasterbotten\/Sv\/djur-och-natur\/skyddad-natur\/naturreservat\/umea-kommun\/vastermark\/Pages\/default.aspx" }, "geometry": { "type": "Point", "coordinates": [ 20.187097, 64.269241 ] } },
{ "type": "Feature", "properties": { "Namn": "Fyren, Bjuröklubb", "Bäddar": null, "Avgift": "Ja", "lat": 64.479899, "lng": 21.574321, "Notering": null, "URL": "http:\/\/www.bjuroklubb.se\/" }, "geometry": { "type": "Point", "coordinates": [ 21.574321, 64.479899 ] } },
{ "type": "Feature", "properties": { "Namn": "Stora Fjäderägg", "Bäddar": 18, "Avgift": "Ja", "lat": 63.807804, "lng": 20.999293, "Notering": null, "URL": "http:\/\/www.storafjaderagg.se\/" }, "geometry": { "type": "Point", "coordinates": [ 20.999293, 63.807804 ] } },
{ "type": "Feature", "properties": { "Namn": "Höjdakojan", "Bäddar": 4, "Avgift": null, "lat": 64.046807, "lng": 16.916837, "Notering": "Stugan är låst. Bokning och hämtning av nyckel sker på OK i Åsele.", "URL": "http:\/\/www.lansstyrelsen.se\/VASTERBOTTEN\/SV\/DJUR-OCH-NATUR\/FRILUFTSLIV\/STUGOR-NEDAFOR-FJALLEN\/Pages\/default.aspx" }, "geometry": { "type": "Point", "coordinates": [ 16.916837, 64.046807 ] } },
{ "type": "Feature", "properties": { "Namn": "Toppstugan", "Bäddar": null, "Avgift": "Nej", "lat": 64.037910, "lng": 16.883631, "Notering": null, "URL": "http:\/\/www.lansstyrelsen.se\/VASTERBOTTEN\/SV\/DJUR-OCH-NATUR\/FRILUFTSLIV\/STUGOR-NEDAFOR-FJALLEN\/Pages\/default.aspx" }, "geometry": { "type": "Point", "coordinates": [ 16.883631, 64.03791 ] } },
{ "type": "Feature", "properties": { "Namn": "Lotshuset", "Bäddar": null, "Avgift": "Ja", "lat": 63.435449, "lng": 19.672651, "Notering": null, "URL": "https:\/\/www.svenskaturistforeningen.se\/anlaggningar\/stf-nordmalinglotshuset-vandrarhem\/" }, "geometry": { "type": "Point", "coordinates": [ 19.672651, 63.435449 ] } },
{ "type": "Feature", "properties": { "Namn": "Marsfjällskåtan", "Bäddar": 0, "Avgift": "Nej", "lat": 65.101845, "lng": 15.264130, "Notering": null, "URL": "http:\/\/www.lansstyrelsen.se\/vasterbotten\/Sv\/djur-och-natur\/friluftsliv\/stugor-i-fjallen\/Pages\/marsfjallskatan.aspx" }, "geometry": { "type": "Point", "coordinates": [ 15.26413, 65.101845 ] } },
{ "type": "Feature", "properties": { "Namn": "Blerikstugan (Matskan)", "Bäddar": 4, "Avgift": "Ja", "lat": 65.083247, "lng": 16.077113, "Notering": null, "URL": "http:\/\/www.lansstyrelsen.se\/vasterbotten\/Sv\/djur-och-natur\/friluftsliv\/stugor-i-fjallen\/Pages\/bleriken-i-matskanomradet.aspx" }, "geometry": { "type": "Point", "coordinates": [ 16.077113, 65.083247 ] } },
{ "type": "Feature", "properties": { "Namn": "Blerikstugan (Marsfjället)", "Bäddar": 16, "Avgift": "Ja", "lat": 65.175097, "lng": 15.367106, "Notering": "Köksdelen och ytterligare 4 bäddar står alltid öppet.", "URL": "http:\/\/www.lansstyrelsen.se\/vasterbotten\/Sv\/djur-och-natur\/friluftsliv\/stugor-i-fjallen\/Pages\/blerikstugan-soder-om-.aspx" }, "geometry": { "type": "Point", "coordinates": [ 15.367106, 65.175097 ] } },
{ "type": "Feature", "properties": { "Namn": "Daningen - Daarnege", "Bäddar": 4, "Avgift": "Ja", "lat": 65.372047, "lng": 14.527199, "Notering": null, "URL": "http:\/\/www.lansstyrelsen.se\/vasterbotten\/Sv\/djur-och-natur\/friluftsliv\/stugor-i-fjallen\/Pages\/daningendarneke.aspx" }, "geometry": { "type": "Point", "coordinates": [ 14.527199, 65.372047 ] } },
{ "type": "Feature", "properties": { "Namn": "Durronskalet", "Bäddar": 0, "Avgift": "Nej", "lat": 65.126104, "lng": 14.710854, "Notering": null, "URL": "http:\/\/www.lansstyrelsen.se\/vasterbotten\/Sv\/djur-och-natur\/friluftsliv\/stugor-i-fjallen\/Pages\/Durronskalet.aspx" }, "geometry": { "type": "Point", "coordinates": [ 14.710854, 65.126104 ] } },
{ "type": "Feature", "properties": { "Namn": "Ljusliden", "Bäddar": 15, "Avgift": "Ja", "lat": 65.253268, "lng": 14.932070, "Notering": null, "URL": "http:\/\/www.lansstyrelsen.se\/vasterbotten\/Sv\/djur-och-natur\/friluftsliv\/stugor-i-fjallen\/Pages\/ljusliden.aspx" }, "geometry": { "type": "Point", "coordinates": [ 14.93207, 65.253268 ] } },
{ "type": "Feature", "properties": { "Namn": "Mon", "Bäddar": 4, "Avgift": "Ja", "lat": 65.237435, "lng": 14.817321, "Notering": "Inga madrasser finns.", "URL": "http:\/\/www.lansstyrelsen.se\/vasterbotten\/Sv\/djur-och-natur\/friluftsliv\/stugor-i-fjallen\/Pages\/mon.aspx" }, "geometry": { "type": "Point", "coordinates": [ 14.817321, 65.237435 ] } },
{ "type": "Feature", "properties": { "Namn": "Skible", "Bäddar": 4, "Avgift": "Ja", "lat": 65.217481, "lng": 14.733798, "Notering": null, "URL": "http:\/\/www.lansstyrelsen.se\/vasterbotten\/Sv\/djur-och-natur\/friluftsliv\/stugor-i-fjallen\/Pages\/skible.aspx" }, "geometry": { "type": "Point", "coordinates": [ 14.733798, 65.217481 ] } },
{ "type": "Feature", "properties": { "Namn": "Sjliptjehke - Slipsikstugan", "Bäddar": 10, "Avgift": "Ja", "lat": 64.983990, "lng": 14.717917, "Notering": null, "URL": "http:\/\/www.lansstyrelsen.se\/vasterbotten\/Sv\/djur-och-natur\/friluftsliv\/stugor-i-fjallen\/Pages\/slipsiken.aspx" }, "geometry": { "type": "Point", "coordinates": [ 14.717917, 64.98399 ] } },
{ "type": "Feature", "properties": { "Namn": "Tjåkkelestugan", "Bäddar": 10, "Avgift": "Ja", "lat": 65.182771, "lng": 14.566383, "Notering": null, "URL": "http:\/\/www.lansstyrelsen.se\/vasterbotten\/Sv\/djur-och-natur\/friluftsliv\/stugor-i-fjallen\/tjakkelestugan\/Pages\/default.aspx" }, "geometry": { "type": "Point", "coordinates": [ 14.566383, 65.182771 ] } },
{ "type": "Feature", "properties": { "Namn": "Åtnikstugan", "Bäddar": 18, "Avgift": "Ja", "lat": 65.305897, "lng": 14.607070, "Notering": null, "URL": "http:\/\/www.lansstyrelsen.se\/vasterbotten\/Sv\/djur-och-natur\/friluftsliv\/stugor-i-fjallen\/Pages\/atnikstugan.aspx" }, "geometry": { "type": "Point", "coordinates": [ 14.60707, 65.305897 ] } },
{ "type": "Feature", "properties": { "Namn": "Lappstugan", "Bäddar": 2, "Avgift": "Ja", "lat": 65.448041, "lng": 15.828504, "Notering": null, "URL": "http:\/\/www.lansstyrelsen.se\/vasterbotten\/Sv\/djur-och-natur\/friluftsliv\/stugor-i-fjallen\/Pages\/lappstugan.aspx" }, "geometry": { "type": "Point", "coordinates": [ 15.828504, 65.448041 ] } },
{ "type": "Feature", "properties": { "Namn": "Lill-Månkes koja ", "Bäddar": 2, "Avgift": null, "lat": 64.818256, "lng": 15.487547, "Notering": null, "URL": "http:\/\/www.lansstyrelsen.se\/vasterbotten\/Sv\/djur-och-natur\/friluftsliv\/stugor-i-fjallen\/Pages\/lill-mankes-koja.aspx" }, "geometry": { "type": "Point", "coordinates": [ 15.487547, 64.818256 ] } },
{ "type": "Feature", "properties": { "Namn": "Abelvattnet", "Bäddar": 8, "Avgift": "Ja", "lat": 65.542048, "lng": 14.984675, "Notering": "Låst stuga. För hyra kontakta Astrid Östergren 0954-220 14.", "URL": "http:\/\/www.lansstyrelsen.se\/vasterbotten\/Sv\/djur-och-natur\/friluftsliv\/stugor-i-fjallen\/Pages\/abelvattnet.aspx" }, "geometry": { "type": "Point", "coordinates": [ 14.984675, 65.542048 ] } },
{ "type": "Feature", "properties": { "Namn": "Arevattnet", "Bäddar": 4, "Avgift": "Nej", "lat": 65.515366, "lng": 14.554404, "Notering": null, "URL": "http:\/\/www.lansstyrelsen.se\/vasterbotten\/Sv\/djur-och-natur\/friluftsliv\/stugor-i-fjallen\/Pages\/arevattnet.aspx" }, "geometry": { "type": "Point", "coordinates": [ 14.554404, 65.515366 ] } },
{ "type": "Feature", "properties": { "Namn": "Loberget", "Bäddar": null, "Avgift": "Nej", "lat": 64.279037, "lng": 20.305036, "Notering": null, "URL": "http:\/\/www.botsmark.se\/sites\/default\/files\/Framjandet%20beskrivning.pdf" }, "geometry": { "type": "Point", "coordinates": [ 20.305036, 64.279037 ] } },
{ "type": "Feature", "properties": { "Namn": "Stenberget", "Bäddar": null, "Avgift": "Nej", "lat": 64.256294, "lng": 20.231795, "Notering": null, "URL": "http:\/\/www.botsmark.se\/sites\/default\/files\/Framjandet%20beskrivning.pdf" }, "geometry": { "type": "Point", "coordinates": [ 20.231795, 64.256294 ] } },
{ "type": "Feature", "properties": { "Namn": "Missutjärn", "Bäddar": 4, "Avgift": "Nej", "lat": 64.404485, "lng": 19.465928, "Notering": null, "URL": "http:\/\/www.isalvsleden.se\/text1_17.html" }, "geometry": { "type": "Point", "coordinates": [ 19.465928, 64.404485 ] } },
{ "type": "Feature", "properties": { "Namn": "Långholmarna", "Bäddar": null, "Avgift": "Nej", "lat": 63.819233, "lng": 19.340259, "Notering": null, "URL": null }, "geometry": { "type": "Point", "coordinates": [ 19.340259, 63.819233 ] } },
{ "type": "Feature", "properties": { "Namn": "Storforsen", "Bäddar": null, "Avgift": "Nej", "lat": 63.826187, "lng": 19.321526, "Notering": null, "URL": null }, "geometry": { "type": "Point", "coordinates": [ 19.321526, 63.826187 ] } },
{ "type": "Feature", "properties": { "Namn": "Hummelholm", "Bäddar": 4, "Avgift": "Nej", "lat": 63.727451, "lng": 19.491699, "Notering": null, "URL": null }, "geometry": { "type": "Point", "coordinates": [ 19.491699, 63.727451 ] } },
{ "type": "Feature", "properties": { "Namn": "Högåker", "Bäddar": null, "Avgift": "Nej", "lat": 63.676272, "lng": 19.175777, "Notering": null, "URL": null }, "geometry": { "type": "Point", "coordinates": [ 19.175777, 63.676272 ] } },
{ "type": "Feature", "properties": { "Namn": "Nedre Älgforsen", "Bäddar": null, "Avgift": "Nej", "lat": 63.763862, "lng": 18.996118, "Notering": null, "URL": null }, "geometry": { "type": "Point", "coordinates": [ 18.996118, 63.763862 ] } },
{ "type": "Feature", "properties": { "Namn": "Överlögda", "Bäddar": null, "Avgift": "Nej", "lat": 63.781107, "lng": 18.972294, "Notering": null, "URL": null }, "geometry": { "type": "Point", "coordinates": [ 18.972294, 63.781107 ] } },
{ "type": "Feature", "properties": { "Namn": "Långforskojan", "Bäddar": null, "Avgift": "Nej", "lat": 63.885218, "lng": 18.892021, "Notering": null, "URL": null }, "geometry": { "type": "Point", "coordinates": [ 18.892021, 63.885218 ] } },
{ "type": "Feature", "properties": { "Namn": "Långforskojorna (2 st)", "Bäddar": null, "Avgift": "Nej", "lat": 63.893160, "lng": 18.896946, "Notering": null, "URL": null }, "geometry": { "type": "Point", "coordinates": [ 18.896946, 63.89316 ] } },
{ "type": "Feature", "properties": { "Namn": "Storforskojan", "Bäddar": null, "Avgift": "Nej", "lat": 63.929283, "lng": 18.868353, "Notering": null, "URL": null }, "geometry": { "type": "Point", "coordinates": [ 18.868353, 63.929283 ] } },
{ "type": "Feature", "properties": { "Namn": "Tjuvnäverholmen", "Bäddar": null, "Avgift": "Nej", "lat": 63.969012, "lng": 18.806469, "Notering": null, "URL": null }, "geometry": { "type": "Point", "coordinates": [ 18.806469, 63.969012 ] } },
{ "type": "Feature", "properties": { "Namn": "Lång-Viskaforskojan", "Bäddar": null, "Avgift": "Nej", "lat": 63.999205, "lng": 18.794475, "Notering": null, "URL": null }, "geometry": { "type": "Point", "coordinates": [ 18.794475, 63.999205 ] } },
{ "type": "Feature", "properties": { "Namn": "Rävfallstugan", "Bäddar": 16, "Avgift": "Ja", "lat": 66.095477, "lng": 16.118990, "Notering": "Nyckel krävs. Bastu finns.", "URL": "http:\/\/www.vindelfjallen.se\/besokare\/stugor-kojor-och-rastskyddmankeforsstugan\/ravfallsstugan" }, "geometry": { "type": "Point", "coordinates": [ 16.11899, 66.095477 ] } },
{ "type": "Feature", "properties": { "Namn": "Aigertstugan", "Bäddar": 30, "Avgift": "Ja", "lat": 65.941367, "lng": 16.094663, "Notering": "Bastu och butik finns.", "URL": "https:\/\/www.svenskaturistforeningen.se\/anlaggningar\/stf-aigert-fjallstuga\/" }, "geometry": { "type": "Point", "coordinates": [ 16.094663, 65.941367 ] } },
{ "type": "Feature", "properties": { "Namn": "Servestugan", "Bäddar": 30, "Avgift": "Ja", "lat": 65.972362, "lng": 15.764238, "Notering": "Butik finns.", "URL": "https:\/\/www.svenskaturistforeningen.se\/anlaggningar\/stf-serve-fjallstuga\/" }, "geometry": { "type": "Point", "coordinates": [ 15.764238, 65.972362 ] } },
{ "type": "Feature", "properties": { "Namn": "Tärnasjöstugorna", "Bäddar": 26, "Avgift": "Ja", "lat": 65.988825, "lng": 15.497247, "Notering": "Bastu finns.", "URL": "https:\/\/www.svenskaturistforeningen.se\/anlaggningar\/stf-tarnasjo-fjallstuga\/" }, "geometry": { "type": "Point", "coordinates": [ 15.497247, 65.988825 ] } },
{ "type": "Feature", "properties": { "Namn": "Syterstugan", "Bäddar": 30, "Avgift": "Ja", "lat": 65.892760, "lng": 15.396649, "Notering": "Butik finns.", "URL": "https:\/\/www.svenskaturistforeningen.se\/anlaggningar\/stf-syter-fjallstuga\/" }, "geometry": { "type": "Point", "coordinates": [ 15.396649, 65.89276 ] } },
{ "type": "Feature", "properties": { "Namn": "Viterskalsstugan", "Bäddar": 24, "Avgift": "Ja", "lat": 65.884973, "lng": 15.158562, "Notering": "Butik finns.", "URL": "https:\/\/www.svenskaturistforeningen.se\/anlaggningar\/stf-viterskalet-fjallstuga\/" }, "geometry": { "type": "Point", "coordinates": [ 15.158562, 65.884973 ] } },
{ "type": "Feature", "properties": { "Namn": "Vitnjul östra", "Bäddar": 6, "Avgift": "Ja", "lat": 66.150051, "lng": 16.006246, "Notering": "Nyckel krävs.", "URL": "http:\/\/www.vindelfjallen.se\/besokare\/valkommen-till-vitnjul-ostra" }, "geometry": { "type": "Point", "coordinates": [ 16.006246, 66.150051 ] } },
{ "type": "Feature", "properties": { "Namn": "Vitnjul västra", "Bäddar": 4, "Avgift": "Ja", "lat": 66.150193, "lng": 16.007959, "Notering": "Öppen stuga", "URL": "http:\/\/www.vindelfjallen.se\/besokare\/stugor-kojor-och-rastskyddmankeforsstugan\/vitnjulstugan" }, "geometry": { "type": "Point", "coordinates": [ 16.007959, 66.150193 ] } },
{ "type": "Feature", "properties": { "Namn": "Mankeforsen", "Bäddar": 6, "Avgift": "Ja", "lat": 66.177662, "lng": 15.848401, "Notering": "Nyckel krävs.", "URL": "http:\/\/www.vindelfjallen.se\/besokare\/stugor-kojor-och-rastskyddmankeforsstugan\/mankeforsstugan" }, "geometry": { "type": "Point", "coordinates": [ 15.848401, 66.177662 ] } },
{ "type": "Feature", "properties": { "Namn": "Dalavardo", "Bäddar": 4, "Avgift": "Ja", "lat": 66.188382, "lng": 15.650243, "Notering": "Nyckel krävs.", "URL": "http:\/\/www.vindelfjallen.se\/besokare\/stugor-kojor-och-rastskyddmankeforsstugan\/dalavardostugan" }, "geometry": { "type": "Point", "coordinates": [ 15.650243, 66.188382 ] } },
{ "type": "Feature", "properties": { "Namn": "Vindelkroken", "Bäddar": 4, "Avgift": "Ja", "lat": 66.273387, "lng": 15.552593, "Notering": "Öppen stuga.", "URL": "http:\/\/www.vindelfjallen.se\/besokare\/stugor-kojor-och-rastskyddmankeforsstugan" }, "geometry": { "type": "Point", "coordinates": [ 15.552593, 66.273387 ] } },
{ "type": "Feature", "properties": { "Namn": "Skidbäcksbaracken", "Bäddar": 6, "Avgift": "Ja", "lat": 66.084104, "lng": 15.540602, "Notering": "Öppen stuga.", "URL": "http:\/\/www.vindelfjallen.se\/besokare\/stugor-kojor-och-rastskyddmankeforsstugan\/skidbacksstugan" }, "geometry": { "type": "Point", "coordinates": [ 15.540602, 66.084104 ] } },
{ "type": "Feature", "properties": { "Namn": "Aijvak", "Bäddar": 2, "Avgift": "Ja", "lat": 65.806021, "lng": 16.116947, "Notering": "Ny stuga på gång", "URL": "http:\/\/www.vindelfjallen.se\/besokare\/stugor-kojor-och-rastskyddmankeforsstugan\/aijvak" }, "geometry": { "type": "Point", "coordinates": [ 16.116947, 65.806021 ] } },
{ "type": "Feature", "properties": { "Namn": "Glimmerstugan", "Bäddar": 4, "Avgift": "Ja", "lat": 66.020794, "lng": 15.283884, "Notering": "Öppen stuga.", "URL": "http:\/\/www.vindelfjallen.se\/besokare\/stugor-kojor-och-rastskyddmankeforsstugan\/glimmerstugan" }, "geometry": { "type": "Point", "coordinates": [ 15.283884, 66.020794 ] } },
{ "type": "Feature", "properties": { "Namn": "Forsavan", "Bäddar": 2, "Avgift": "Ja", "lat": 65.867195, "lng": 15.493971, "Notering": "Öppen stuga.", "URL": "http:\/\/www.vindelfjallen.se\/besokare\/stugor-kojor-och-rastskyddmankeforsstugan\/forsavanstugan" }, "geometry": { "type": "Point", "coordinates": [ 15.493971, 65.867195 ] } },
{ "type": "Feature", "properties": { "Namn": "Jirestugan", "Bäddar": 4, "Avgift": "Ja", "lat": 66.005153, "lng": 15.226324, "Notering": "Öppen stuga.", "URL": "http:\/\/www.vindelfjallen.se\/besokare\/jirestugan" }, "geometry": { "type": "Point", "coordinates": [ 15.226324, 66.005153 ] } },
{ "type": "Feature", "properties": { "Namn": "Vatjomjaure", "Bäddar": 4, "Avgift": "Ja", "lat": 65.779405, "lng": 15.874717, "Notering": null, "URL": "http:\/\/www.vindelfjallen.se\/besokare\/stugor-kojor-och-rastskyddmankeforsstugan" }, "geometry": { "type": "Point", "coordinates": [ 15.874717, 65.779405 ] } },
{ "type": "Feature", "properties": { "Namn": "Märsabäckskojan", "Bäddar": 4, "Avgift": "Nej", "lat": 65.536316, "lng": 16.231767, "Notering": null, "URL": "http:\/\/www.vindelfjallen.se\/besokare\/stugor-kojor-och-rastskyddmankeforsstugan\/marsabackskojan" }, "geometry": { "type": "Point", "coordinates": [ 16.231767, 65.536316 ] } },
{ "type": "Feature", "properties": { "Namn": "Stor-Aisekojan", "Bäddar": 4, "Avgift": "Nej", "lat": 65.506909, "lng": 16.394629, "Notering": null, "URL": "http:\/\/www.vindelfjallen.se\/besokare\/stugor-kojor-och-rastskyddmankeforsstugan\/stor-assiekojan" }, "geometry": { "type": "Point", "coordinates": [ 16.394629, 65.506909 ] } },
{ "type": "Feature", "properties": { "Namn": "Vapskojan", "Bäddar": null, "Avgift": "Nej", "lat": 65.685203, "lng": 16.375592, "Notering": null, "URL": "http:\/\/www.vindelfjallen.se\/besokare\/stugor-kojor-och-rastskyddmankeforsstugan" }, "geometry": { "type": "Point", "coordinates": [ 16.375592, 65.685203 ] } },
{ "type": "Feature", "properties": { "Namn": "Björnkojan", "Bäddar": null, "Avgift": "Nej", "lat": 65.682230, "lng": 16.450325, "Notering": null, "URL": "http:\/\/www.vindelfjallen.se\/besokare\/stugor-kojor-och-rastskyddmankeforsstugan\/bjornkojan" }, "geometry": { "type": "Point", "coordinates": [ 16.450325, 65.68223 ] } },
{ "type": "Feature", "properties": { "Namn": "Råvojaurekojan", "Bäddar": 6, "Avgift": "Nej", "lat": 65.855065, "lng": 16.817484, "Notering": null, "URL": "http:\/\/www.vindelfjallen.se\/besokare\/stugor-kojor-och-rastskyddmankeforsstugan\/ravojaurekojan" }, "geometry": { "type": "Point", "coordinates": [ 16.817484, 65.855065 ] } },
{ "type": "Feature", "properties": { "Namn": "Giertsbäcken", "Bäddar": 6, "Avgift": "Nej", "lat": 65.908713, "lng": 16.874523, "Notering": null, "URL": "http:\/\/www.vindelfjallen.se\/upptack\/upptack\/giertsbacksdalen" }, "geometry": { "type": "Point", "coordinates": [ 16.874523, 65.908713 ] } },
{ "type": "Feature", "properties": { "Namn": "Magasjön", "Bäddar": 2, "Avgift": "Nej", "lat": 65.530397, "lng": 16.310688, "Notering": null, "URL": "http:\/\/www.vindelfjallen.se\/besokare\/stugor-kojor-och-rastskyddmankeforsstugan\/magasjostugan" }, "geometry": { "type": "Point", "coordinates": [ 16.310688, 65.530397 ] } },
{ "type": "Feature", "properties": { "Namn": "Juovatvaretje", "Bäddar": 0, "Avgift": "Nej", "lat": 65.926305, "lng": 15.936635, "Notering": null, "URL": "http:\/\/www.vindelfjallen.se\/besokare\/stugor-kojor-och-rastskyddmankeforsstugan\/juovatvaretje-rastskydd" }, "geometry": { "type": "Point", "coordinates": [ 15.936635, 65.926305 ] } },
{ "type": "Feature", "properties": { "Namn": "Matsen", "Bäddar": 0, "Avgift": "Nej", "lat": 65.954929, "lng": 15.891117, "Notering": null, "URL": "http:\/\/www.vindelfjallen.se\/besokare\/stugor-kojor-och-rastskyddmankeforsstugan\/matsen-rastskydd" }, "geometry": { "type": "Point", "coordinates": [ 15.891117, 65.954929 ] } },
{ "type": "Feature", "properties": { "Namn": "Stabre", "Bäddar": 0, "Avgift": "Nej", "lat": 65.817932, "lng": 15.353513, "Notering": null, "URL": "http:\/\/www.vindelfjallen.se\/besokare\/stugor-kojor-och-rastskyddmankeforsstugan\/stabre" }, "geometry": { "type": "Point", "coordinates": [ 15.353513, 65.817932 ] } },
{ "type": "Feature", "properties": { "Namn": "Syterskalet", "Bäddar": 0, "Avgift": "Nej", "lat": 65.873729, "lng": 15.289164, "Notering": null, "URL": "http:\/\/www.vindelfjallen.se\/besokare\/stugor-kojor-och-rastskyddmankeforsstugan\/syterskalet" }, "geometry": { "type": "Point", "coordinates": [ 15.289164, 65.873729 ] } },
{ "type": "Feature", "properties": { "Namn": "Marinstugan", "Bäddar": 0, "Avgift": "Nej", "lat": 65.814995, "lng": 15.271968, "Notering": null, "URL": "http:\/\/www.vindelfjallen.se\/besokare\/stugor-kojor-och-rastskyddmankeforsstugan\/vallentjahkkemarinstugan" }, "geometry": { "type": "Point", "coordinates": [ 15.271968, 65.814995 ] } },
{ "type": "Feature", "properties": { "Namn": "Örnbo", "Bäddar": 0, "Avgift": "Nej", "lat": 65.947357, "lng": 16.322239, "Notering": null, "URL": "http:\/\/www.vindelfjallen.se\/besokare\/stugor-kojor-och-rastskyddmankeforsstugan" }, "geometry": { "type": "Point", "coordinates": [ 16.322239, 65.947357 ] } },
{ "type": "Feature", "properties": { "Namn": "Angsjökojan", "Bäddar": 4, "Avgift": "Nej", "lat": 63.974878, "lng": 18.041203, "Notering": null, "URL": "https:\/\/www.sverigesnationalparker.se\/park\/bjornlandets-nationalpark\/" }, "geometry": { "type": "Point", "coordinates": [ 18.041203, 63.974878 ] } },
{ "type": "Feature", "properties": { "Namn": "Svärmorskojan", "Bäddar": 4, "Avgift": "Nej", "lat": 63.983793, "lng": 17.985134, "Notering": null, "URL": "https:\/\/www.sverigesnationalparker.se\/park\/bjornlandets-nationalpark\/" }, "geometry": { "type": "Point", "coordinates": [ 17.985134, 63.983793 ] } },
{ "type": "Feature", "properties": { "Namn": "Tjäderberget", "Bäddar": 4, "Avgift": "Nej", "lat": 64.443317, "lng": 19.054370, "Notering": null, "URL": "http:\/\/www.sca.com\/Global\/SCA-Skog\/Press-Publikationer\/broschyrer\/Tj%C3%A4derberget_20140514_SLUTKORR.pdf?epslanguage=sv#page=13" }, "geometry": { "type": "Point", "coordinates": [ 19.05437, 64.443317 ] } }
{ "type": "Feature", "properties": { "Namn": "Stor-Sexberget", "Bäddar": null, "Avgift": "Nej", "lat": 63.924318, "lng": 18.576740, "Notering": null, "URL": "http:\/\/www.aselebyar.nu\/fredrika\/index.php?expand=1&expand2=1&menuID=1274&pageID=1093&submenuID=1344&subpageID=1134" }, "geometry": { "type": "Point", "coordinates": [ 18.57674, 63.924318 ] } }
]
}
